,City,Cloudiness,Country,Date,humidity,Lat,Lng,Max Temp,Wind Speed
0,pisco,0,PE,1569448316,30,-13.71,-76.2,71.6,13.87
1,jamestown,0,AU,1569448397,65,-33.21,138.6,47.0,6.53
2,maceio,0,BR,1569448401,83,-9.67,-35.74,73.4,9.17
3,mar del plata,59,AR,1569448398,25,-46.43,-67.52,67.75,22.82
4,manacapuru,75,BR,1569448401,83,-3.3,-60.62,77.0,4.7
5,nuuk,0,GL,1569448401,63,64.17,-51.74,41.0,9.17
6,havoysund,75,NO,1569448401,93,71.0,24.66,44.6,21.92
7,aklavik,20,CA,1569448401,60,68.22,-135.01,42.8,4.7
8,padang,89,ID,1569448401,89,-0.92,100.36,78.23,10.83
9,hamilton,75,CA,1569448384,44,43.26,-79.87,77.0,19.46
10,port alfred,0,ZA,1569448402,72,-33.59,26.89,57.0,1.01
11,rincon,75,PA,1569448402,94,8.46,-82.28,78.8,3.36
12,castro,0,CL,1569448402,72,-42.48,-73.76,59.0,9.17
13,puerto ayora,20,EC,1569448402,65,-0.74,-90.35,77.0,18.34
14,esperance,75,AU,1569448402,100,-33.86,121.89,51.8,3.36
15,saskylakh,29,RU,1569448402,96,71.97,114.09,30.71,5.97
16,hobart,75,AU,1569448397,66,-42.88,147.33,51.01,10.29
17,mogadishu,24,SO,1569448403,84,2.04,45.34,77.36,15.66
18,portland,90,US,1569447805,63,43.66,-70.25,68.0,8.05
19,mataura,100,NZ,1569448403,89,-46.19,168.86,45.0,17.0
20,albany,1,US,1569448353,60,42.65,-73.75,75.2,3.36
21,moindou,0,NC,1569448403,56,-21.69,165.68,71.6,5.82
22,najran,75,SA,1569448403,30,17.54,44.22,84.2,6.93
23,hilo,75,US,1569448403,58,19.71,-155.08,86.0,10.29
24,necochea,67,AR,1569448403,81,-38.55,-58.74,54.0,4.56
25,yellowknife,75,CA,1569448403,93,62.45,-114.38,39.2,8.05
26,lazaro cardenas,40,MX,1569448404,54,28.39,-105.62,80.6,9.17
27,barrow,61,AR,1569448404,62,-38.31,-60.23,66.9,6.08
28,semenivka,100,UA,1569448404,54,52.18,32.58,45.2,9.08
29,tuktoyaktuk,75,CA,1569448404,86,69.44,-133.03,41.0,4.7
30,saint-philippe,20,CA,1569448404,59,45.36,-73.48,69.01,8.05
31,port elizabeth,1,US,1569448404,31,39.31,-74.98,81.0,9.17
32,saldanha,100,PT,1569448405,65,41.42,-6.55,61.4,4.45
33,kabo,99,CF,1569448405,94,7.69,18.62,71.82,1.72
34,cedro,19,BR,1569448346,26,-6.61,-39.06,85.16,2.44
35,bima,31,ID,1569448405,97,-8.45,118.73,68.15,2.39
36,ushuaia,75,AR,1569448405,64,-54.81,-68.31,39.2,17.22
37,hami,0,CN,1569448405,22,42.84,93.51,69.86,9.08
38,chokurdakh,29,RU,1569448405,89,70.62,147.9,23.67,7.87
39,punta arenas,20,CL,1569448405,49,-53.16,-70.91,46.4,27.51
40,east london,0,ZA,1569448405,66,-33.02,27.91,51.69,12.01
41,busselton,100,AU,1569448406,64,-33.64,115.35,55.99,9.91
42,bambous virieux,40,MU,1569448406,100,-20.34,57.76,71.01,3.36
43,porto novo,75,BR,1569448406,88,-23.68,-45.44,64.4,2.24
44,date,20,JP,1569448406,93,42.53,140.93,53.01,2.24
45,kaitangata,90,NZ,1569448406,70,-46.28,169.85,44.01,17.0
46,laguna,40,BZ,1569448406,63,16.17,-88.94,91.4,6.93
47,saint george,20,GR,1569448406,88,39.45,22.34,64.4,2.91
48,bluff,36,AU,1569448407,86,-23.58,149.07,64.58,10.29
49,geraldton,75,CA,1569448407,67,49.72,-86.95,57.2,11.41
50,provideniya,0,RU,1569448407,69,64.42,-173.23,37.4,4.36
51,sterling,1,US,1569448407,36,39.0,-77.4,82.4,4.7
52,mehamn,75,NO,1569448407,87,71.03,27.85,44.6,8.05
53,yaan,85,NG,1569448407,92,7.38,8.57,75.92,5.17
54,pandan,34,PH,1569448407,75,11.72,122.09,81.32,10.6
55,mazamari,67,PE,1569448312,69,-11.33,-74.53,48.47,6.71
56,paka,98,CF,1569448408,93,4.15,15.03,70.02,3.09
57,kahului,40,US,1569448408,46,20.89,-156.47,89.6,10.29
58,pangnirtung,75,CA,1569448408,73,66.15,-65.72,50.0,5.82
59,victoria,75,BN,1569448408,69,5.28,115.24,82.4,4.7
60,hithadhoo,100,MV,1569448190,72,-0.6,73.08,82.2,7.23
61,yulara,6,AU,1569448409,81,-25.24,130.99,50.0,5.82
62,maryville,1,US,1569448409,22,35.76,-83.97,91.4,6.93
63,vestmannaeyjar,100,IS,1569448409,89,63.44,-20.27,51.41,5.99
64,itoman,20,JP,1569448409,83,26.12,127.67,78.8,9.17
65,odesskoye,0,RU,1569448409,73,54.21,72.97,34.83,7.45
66,mattru,100,SL,1569448409,94,7.62,-11.83,75.11,3.06
67,kununurra,0,AU,1569448409,59,-15.77,128.74,64.4,2.24
68,ribeira grande,0,PT,1569448410,84,38.52,-28.7,72.45,13.78
69,takoradi,21,GH,1569448410,94,4.89,-1.75,74.95,4.68
70,cherskiy,0,RU,1569448410,72,68.75,161.3,28.83,3.96
71,tasiilaq,98,GL,1569448410,81,65.61,-37.64,46.4,3.36
72,shumikha,0,RU,1569448411,89,55.23,63.28,31.59,8.34
73,dzaoudzi,20,YT,1569448411,83,-12.79,45.27,78.8,17.22
74,saint anthony,1,US,1569448411,34,43.97,-111.68,68.0,11.41
75,pyu,100,MM,1569448411,97,18.48,96.43,70.61,3.0
76,rikitea,0,PF,1569448411,68,-23.12,-134.97,71.73,8.03
77,sopron,0,HU,1569448412,77,47.68,16.6,60.01,11.41
78,dikson,88,RU,1569448412,92,73.51,80.55,35.71,10.18
79,chapais,75,CA,1569448412,76,49.78,-74.86,51.8,18.34
80,college,1,US,1569448373,65,64.86,-147.8,45.0,5.82
81,talnakh,75,RU,1569448412,93,69.49,88.39,35.6,11.18
82,longyearbyen,75,NO,1569448412,93,78.22,15.63,35.6,6.93
83,caravelas,19,BR,1569448412,78,-17.73,-39.27,72.92,12.06
84,mill valley,1,US,1569448412,25,37.91,-122.55,100.99,5.82
85,new norfolk,75,AU,1569448413,66,-42.78,147.06,51.01,10.29
86,cidreira,0,BR,1569448413,83,-30.17,-50.22,65.0,9.24
87,kodiak,1,US,1569448413,41,39.95,-94.76,82.4,8.05
88,muros,75,ES,1569448413,100,42.77,-9.06,66.99,4.7
89,alofi,40,NU,1569448413,65,-19.06,-169.92,78.8,11.41
90,faanui,59,PF,1569448413,77,-16.48,-151.75,79.09,14.61
91,van,20,TR,1569448414,30,38.51,43.37,59.0,6.93
92,oriximina,50,BR,1569448414,54,-1.77,-55.87,90.39,6.26
93,vila velha,75,BR,1569448414,74,-3.71,-38.6,80.6,13.87
94,bethel,20,US,1569448414,70,60.79,-161.76,44.6,19.46
95,airai,0,TL,1569448414,78,-8.93,125.41,69.35,3.65
96,camacha,40,PT,1569448414,77,33.08,-16.33,71.6,11.41
97,lasa,20,CY,1569448414,78,34.92,32.53,75.2,6.93
98,belmonte,74,PT,1569448414,74,40.36,-7.35,60.01,3.44
99,roma,0,IT,1569448206,83,41.89,12.48,73.99,8.05
100,atuona,69,PF,1569448415,78,-9.8,-139.03,79.67,20.24
101,khatanga,69,RU,1569448415,89,71.98,102.47,30.56,9.33
102,save,52,BJ,1569448415,92,8.04,2.49,76.93,3.85
103,miandrivazo,33,MG,1569448415,81,-19.53,45.46,70.58,3.71
104,hermanus,0,ZA,1569448415,57,-34.42,19.24,64.0,5.99
105,butaritari,18,KI,1569448415,70,3.07,172.79,85.03,18.07
106,fortuna,1,US,1569448416,56,40.6,-124.16,90.0,11.41
107,naliya,17,IN,1569448416,75,23.26,68.83,86.06,4.0
108,la asuncion,0,AR,1569448416,31,-26.05,-65.39,69.89,7.63
109,brae,100,GB,1569448416,93,60.4,-1.35,53.6,23.04
110,kalabo,20,ZM,1569448416,36,-15.0,22.67,75.99,15.84
111,hasaki,75,JP,1569448416,77,35.73,140.83,68.0,5.82
112,qaanaaq,98,GL,1569448416,80,77.48,-69.36,19.73,10.36
113,petropavlovsk-kamchatskiy,20,RU,1569448417,100,53.05,158.65,41.0,13.42
114,barstow,1,US,1569448417,26,31.46,-103.39,95.0,5.82
115,peniche,0,PT,1569448417,82,39.36,-9.38,62.6,10.29
116,bredasdorp,0,ZA,1569448417,87,-34.53,20.04,64.0,3.49
117,chimbarongo,0,CL,1569448417,44,-34.71,-71.04,78.8,8.05
118,kapaa,90,US,1569448281,94,22.08,-159.32,79.0,5.82
119,thompson,20,CA,1569448417,27,55.74,-97.86,53.6,12.75
120,otofuke,0,JP,1569448417,75,43.02,143.2,43.45,4.56
121,severo-kurilsk,79,RU,1569448418,85,50.68,156.12,49.26,36.57
122,bathsheba,40,BB,1569448418,74,13.22,-59.52,84.2,12.75
123,kabare,100,RW,1569448418,94,-1.65,29.38,58.64,2.28
124,lavrentiya,1,RU,1569448418,71,65.58,-170.99,32.99,3.76
125,umm lajj,0,SA,1569448418,68,25.02,37.27,84.9,16.24
126,arraial do cabo,75,BR,1569448418,83,-22.97,-42.02,69.8,17.22
127,los llanos de aridane,0,ES,1569448418,69,28.66,-17.92,73.4,10.29
128,khairpur nathan shah,0,PK,1569448419,38,27.09,67.73,91.49,1.72
129,bharwari,55,IN,1569448419,90,25.56,81.49,75.26,11.56
130,armacao de pera,0,PT,1569448419,56,37.1,-8.36,71.6,6.93
131,conceicao do araguaia,53,BR,1569448419,25,-8.26,-49.26,94.64,3.96
132,whyalla,0,AU,1569448419,93,-33.04,137.58,44.6,4.7
133,komsomolskiy,100,RU,1569448419,97,67.55,63.78,32.61,5.75
134,georgetown,75,GY,1569448136,79,6.8,-58.16,86.0,13.87
135,kruisfontein,0,ZA,1569448419,68,-34.0,24.73,52.43,7.14
136,port-cartier,90,CA,1569448420,100,50.03,-66.88,48.0,3.36
137,constitucion,75,MX,1569448420,33,23.99,-104.67,75.99,6.93
138,avarua,99,CK,1569448237,83,-21.21,-159.78,77.0,16.11
139,san jose,90,HN,1569448405,100,14.25,-87.96,73.4,9.17
140,souillac,90,FR,1569448420,93,45.6,-0.6,62.6,11.41
141,auki,0,NG,1569448420,55,12.18,6.51,80.48,7.14
142,klaksvik,100,FO,1569448420,100,62.23,-6.59,51.8,29.97
143,nanortalik,0,GL,1569448420,84,60.14,-45.24,41.6,1.54
144,rockland,75,CA,1569448421,60,45.55,-75.29,73.4,8.05
145,puerto colombia,75,CO,1569448421,83,10.99,-74.96,82.4,4.7
146,san jose del guaviare,48,CO,1569448421,64,2.57,-72.65,85.62,2.15
147,yerbogachen,99,RU,1569448421,95,61.28,108.01,40.48,4.45
148,acapulco,75,MX,1569448421,70,16.86,-99.88,86.0,8.05
149,bambanglipuro,66,ID,1569448421,88,-7.95,110.28,74.72,7.9
150,nikolskoye,90,RU,1569448421,93,59.7,30.79,39.2,2.24
151,iquitos,40,PE,1569448421,319,-3.75,-73.25,42.8,5.82
152,tromso,75,NO,1569448422,93,69.65,18.96,48.2,24.16
153,kostomuksha,100,RU,1569448422,92,64.59,30.6,41.27,9.17
154,nome,75,US,1569448422,48,30.04,-94.42,90.0,6.93
155,cabedelo,20,BR,1569448422,83,-6.97,-34.84,75.2,6.93
156,independence,1,US,1569448372,34,39.09,-94.42,84.99,8.05
157,lompoc,1,US,1569448422,38,34.64,-120.46,89.6,6.93
158,paamiut,0,GL,1569448422,75,61.99,-49.67,42.3,30.74
159,la palma,100,CO,1569448422,62,5.36,-74.39,82.58,3.11
160,coquimbo,0,CL,1569448423,71,-29.95,-71.34,69.01,11.41
161,yantzaza,40,EC,1569448423,39,-3.83,-78.76,80.6,19.46
162,terrace,90,CA,1569448423,87,54.52,-128.61,50.0,6.93
163,mahajanga,20,MG,1569448423,78,-15.72,46.32,78.8,6.93
164,gizo,0,IL,1569448423,69,31.8,34.94,75.99,3.36
165,salym,98,RU,1569448423,82,60.06,71.48,34.04,10.29
166,durazno,0,UY,1569448423,36,-33.38,-56.52,77.0,6.93
167,norman wells,75,CA,1569448424,61,65.28,-126.83,48.2,16.11
168,labuhan,49,ID,1569448424,83,-2.54,115.51,72.5,1.63
169,sur,0,OM,1569448134,73,22.57,59.53,79.77,10.63
170,vaini,100,IN,1569448424,95,15.34,74.49,75.29,2.33
171,campbell river,90,CA,1569448424,87,50.02,-125.24,57.2,6.93
172,vanimo,45,PG,1569448424,82,-2.67,141.3,80.55,8.75
173,nieuw amsterdam,20,SR,1569448424,58,5.88,-55.08,90.0,5.82
174,bokaa,0,BW,1569448424,18,-24.43,26.02,64.4,14.99
175,faya,0,SA,1569448425,45,18.39,42.45,71.6,9.17
176,bilibino,20,RU,1569448425,94,68.06,166.44,17.51,3.76
177,surovatikha,20,RU,1569448425,86,55.77,43.9,37.4,4.47
178,aripuana,58,BR,1569448184,38,-9.17,-60.63,94.52,1.79
179,moranbah,14,AU,1569448425,87,-22.0,148.04,63.0,11.95
180,leningradskiy,95,RU,1569448425,90,69.38,178.42,30.08,8.14
181,eirunepe,100,BR,1569448425,42,-6.66,-69.87,92.32,3.22
182,les cayes,100,HT,1569448425,74,18.19,-73.75,83.5,7.81
183,dauriya,0,RU,1569448426,62,49.93,116.85,53.17,9.06
184,suriapet,100,IN,1569448426,96,17.15,79.62,75.26,2.71
185,lebu,90,ET,1569448426,84,8.96,38.73,56.32,4.74
186,gilgit,0,PK,1569448426,54,35.92,74.31,48.56,5.61
187,yeppoon,14,AU,1569448426,77,-23.13,150.74,68.0,6.93
188,cape town,0,ZA,1569448297,77,-33.93,18.42,69.01,6.93
189,the valley,20,AI,1569448426,74,18.22,-63.06,84.2,9.17
190,haines junction,90,CA,1569448426,59,60.75,-137.51,40.93,7.05
191,alexandria,100,RO,1569448296,82,43.97,25.33,57.99,5.88
192,maragogi,22,BR,1569448427,87,-9.01,-35.22,70.67,5.17
193,rawson,0,AR,1569448427,28,-43.3,-65.11,71.76,20.69
194,high level,40,CA,1569448427,50,58.52,-117.13,51.8,6.93
195,ponta do sol,78,BR,1569448427,74,-20.63,-46.0,69.12,6.73
196,inhambane,26,MZ,1569448427,78,-23.87,35.38,58.44,8.41
197,alugan,70,PH,1569448427,91,12.22,125.48,76.08,0.2
198,berlevag,75,NO,1569448427,93,70.86,29.09,44.6,16.11
199,bagnols-sur-ceze,40,FR,1569448427,72,44.16,4.62,68.0,3.36
200,shiliguri,90,IN,1569448428,93,26.7,88.43,56.84,2.71
201,kikwit,36,CD,1569448428,74,-5.04,18.82,74.66,2.37
202,clyde river,75,CA,1569448428,100,70.47,-68.59,35.6,10.29
203,taoudenni,24,ML,1569448428,9,22.68,-3.98,98.33,7.27
204,kavaratti,100,IN,1569448428,74,10.57,72.64,82.17,7.38
205,kitaotao,53,PH,1569448428,93,7.64,125.01,72.29,1.68
206,panama city,1,US,1569448225,62,30.16,-85.65,90.0,16.11
207,luderitz,0,NA,1569448428,24,-26.65,15.16,78.8,3.36
208,ilulissat,20,GL,1569448429,80,69.22,-51.1,35.6,1.12
209,kudahuvadhoo,100,MV,1569448429,68,2.67,72.89,82.37,7.56
210,axim,0,GH,1569448429,92,4.87,-2.24,76.75,10.2
211,kemi,75,FI,1569448429,81,65.74,24.56,44.6,3.36
212,cabo san lucas,5,MX,1569448429,66,22.89,-109.91,89.01,16.11
213,yorkton,1,CA,1569448429,33,51.21,-102.46,59.0,19.46
214,goderich,100,CA,1569448430,87,43.74,-81.71,73.99,27.11
215,mahebourg,40,MU,1569448430,100,-20.41,57.7,71.01,3.36
216,gat,60,SN,1569448430,94,14.69,-16.54,84.2,4.7
217,gravdal,20,NO,1569448430,66,59.79,5.78,57.0,13.87
218,comodoro rivadavia,40,AR,1569448430,23,-45.87,-67.48,77.0,16.11
219,cortes,14,PH,1569448430,77,9.28,126.19,80.8,2.84
220,sao filipe,97,CV,1569448430,83,14.9,-24.5,78.33,16.4
221,le mars,75,US,1569448431,82,42.79,-96.17,61.0,6.93
222,opuwo,0,NA,1569448431,42,-18.06,13.84,62.69,2.3
223,port-gentil,40,GA,1569448431,94,-0.72,8.78,77.0,10.29
224,tabou,60,CI,1569448431,94,4.42,-7.36,75.11,4.54
225,vitrolles,0,FR,1569448431,68,43.46,5.25,69.01,18.34
226,buluang,75,PH,1569448432,78,10.47,123.98,80.6,2.24
227,mbandaka,100,CD,1569448432,98,0.05,18.26,70.0,1.3
228,mangrol,100,IN,1569448432,90,25.33,76.51,77.27,4.36
229,arys,0,KZ,1569448432,48,42.43,68.8,66.2,4.47
230,lumut,75,BN,1569448432,88,4.66,114.45,80.6,2.24
231,yar-sale,100,RU,1569448433,85,66.83,70.83,35.42,11.36
232,mokhsogollokh,78,RU,1569448433,93,61.4,128.95,35.3,5.37
233,mount gambier,90,AU,1569448433,100,-37.83,140.78,42.8,9.17
234,santa marta de tormes,0,ES,1569448433,82,40.95,-5.63,63.0,2.24
235,ocean city,1,US,1569448349,41,30.44,-86.61,93.99,4.7
236,porto walter,63,BR,1569448433,34,-8.27,-72.74,94.25,3.0
237,launceston,75,AU,1569448241,100,-41.43,147.14,45.0,3.36
238,hay river,20,CA,1569448433,65,60.82,-115.79,46.4,10.29
239,mapiri,75,BO,1569448434,94,-15.31,-68.22,55.26,2.77
240,aquin,100,HT,1569448434,76,18.28,-73.39,81.57,4.12
241,medina,0,SA,1569448338,24,24.47,39.61,95.0,5.82
242,novoagansk,99,RU,1569448434,82,61.94,76.66,31.48,12.33
243,mount isa,0,AU,1569448434,39,-20.73,139.49,66.2,8.99
244,letka,40,BA,1569448434,82,43.74,17.27,66.2,3.36
245,mutis,100,CO,1569448434,82,6.23,-77.4,80.04,10.13
246,quirinopolis,68,BR,1569448435,51,-18.45,-50.45,81.79,8.41
247,vijayawada,100,IN,1569448435,95,16.51,80.62,77.22,5.28
248,khasan,45,RU,1569448435,90,42.43,130.64,50.31,3.29
249,xining,0,CN,1569448435,85,36.62,101.77,38.95,3.09
250,khovu-aksy,67,RU,1569448435,79,51.13,93.72,46.42,1.86
251,northam,75,AU,1569448435,93,-31.65,116.67,51.8,2.1
252,ouadda,100,CF,1569448435,92,8.07,22.4,69.32,1.77
253,tsaritsani,20,GR,1569448435,88,39.88,22.23,66.99,2.33
254,tiksi,100,RU,1569448383,89,71.64,128.87,34.61,9.48
255,namatanai,51,PG,1569448436,81,-3.66,152.44,79.56,7.61
256,exeter,75,GB,1569448436,100,50.73,-3.53,63.0,8.05
257,chuy,55,UY,1569448436,72,-33.69,-53.46,61.79,8.68
258,tautira,75,PF,1569448436,62,-17.73,-149.15,84.2,9.17
259,ketchikan,90,US,1569448164,87,55.34,-131.65,51.8,9.17
260,qinhuangdao,0,CN,1569448436,66,39.94,119.59,58.43,1.92
261,kamenka,100,MD,1569448436,65,48.03,28.7,59.0,5.01
262,ponnampet,75,IN,1569448437,94,12.15,75.93,77.0,4.7
263,darnah,0,LY,1569448229,74,32.77,22.64,75.78,8.41
264,davila,20,PH,1569448437,83,18.47,120.58,78.8,11.41
265,bonavista,100,CA,1569448437,81,48.65,-53.11,48.0,4.0
266,arkansas city,75,US,1569448200,70,37.06,-97.04,87.8,10.29
267,buala,19,SB,1569448437,78,-8.15,159.59,81.39,7.4
268,guerrero negro,0,MX,1569448437,79,27.97,-114.04,68.97,8.48
269,dongsheng,87,CN,1569448437,58,29.72,112.52,69.12,3.4
270,tornabe,75,HN,1569448437,63,15.79,-87.52,96.8,2.24
271,marathon,75,CA,1569448438,76,48.72,-86.38,57.2,6.93
272,bhitarwar,100,IN,1569448438,94,25.8,78.11,75.54,8.12
273,upernavik,90,GL,1569448438,74,72.79,-56.15,34.85,10.02
274,la ronge,75,CA,1569448438,54,55.1,-105.3,53.6,5.82
275,swan river,100,CA,1569448438,50,52.11,-101.27,48.92,13.02
276,imbituba,75,BR,1569448438,82,-28.24,-48.67,68.0,10.29
277,chebenki,0,RU,1569448439,72,51.93,55.71,35.6,4.47
278,khuzhir,100,RU,1569448439,78,53.19,107.35,49.59,3.11
279,kaeo,11,NZ,1569448439,98,-35.1,173.78,57.0,15.7
280,valparaiso,1,US,1569448205,73,41.47,-87.06,80.6,5.82
281,ardu,0,EE,1569448439,87,59.1,25.35,46.4,3.36
282,tumanyan,71,AM,1569448439,51,40.99,44.66,50.22,3.42
283,hambantota,100,LK,1569448439,84,6.12,81.12,78.19,16.22
284,sussex,90,CA,1569448439,87,45.72,-65.51,55.0,6.93
285,ancud,0,CL,1569448439,72,-41.87,-73.83,59.0,9.17
286,ouro preto do oeste,90,BR,1569448440,83,-10.75,-62.22,75.47,8.32
287,grindavik,75,IS,1569448440,87,63.84,-22.43,57.2,12.75
288,makat,0,KZ,1569448440,46,47.65,53.35,47.45,6.85
289,simbahan,7,PH,1569448440,71,6.3,120.58,82.55,0.94
290,sao geraldo do araguaia,100,BR,1569448440,36,-6.4,-48.55,90.21,4.99
291,shingu,0,JP,1569448440,76,33.72,135.99,58.25,5.32
292,alta floresta,65,BR,1569448440,36,-9.87,-56.08,88.92,2.89
293,husavik,100,CA,1569448441,64,50.56,-96.99,55.99,7.0
294,sarkand,100,KZ,1569448441,21,45.41,79.91,58.61,6.4
295,ayan,0,IR,1569448441,38,38.23,44.7,49.46,5.32
296,lata,47,IN,1569448441,93,30.78,78.62,37.37,1.66
297,sumenep,6,ID,1569448441,94,-7.02,113.87,72.5,5.64
298,mwingi,32,KE,1569448441,81,-0.93,38.07,68.11,11.27
299,ulaangom,93,MN,1569448441,66,49.98,92.07,50.13,1.88
300,cockburn town,75,TC,1569448442,88,21.46,-71.14,82.4,4.7
301,umea,0,SE,1569448442,93,63.83,20.26,41.0,5.82
302,kommunisticheskiy,100,RU,1569448442,81,61.68,64.48,34.97,10.54
303,suratgarh,0,IN,1569448353,46,29.32,73.9,88.07,7.25
304,awbari,0,LY,1569448442,19,26.59,12.77,79.54,2.98
305,havre-saint-pierre,90,CA,1569448442,93,50.23,-63.6,46.4,11.41
306,alghero,0,IT,1569448442,88,40.56,8.32,68.0,2.24
307,yigou,0,CN,1569448442,42,35.81,114.32,64.65,2.71
308,sinop,100,TR,1569448194,82,42.03,35.15,64.82,7.65
309,ayagoz,100,KZ,1569448443,57,47.96,80.43,51.57,7.02
310,falam,100,MM,1569448443,99,22.91,93.68,61.13,0.4
311,thinadhoo,98,MV,1569448443,68,0.53,72.93,82.11,5.99
312,mapiripan,6,CO,1569448443,53,2.89,-72.13,89.21,3.56
313,san vicente,20,EC,1569448443,62,-0.59,-80.41,84.2,8.05
314,bosaso,0,SO,1569448443,70,11.28,49.18,87.96,13.94
315,beringovskiy,94,RU,1569448443,68,63.05,179.32,38.5,7.9
316,hovd,0,NO,1569448444,87,63.83,10.7,54.0,9.17
317,asifabad,100,IN,1569448444,98,19.38,79.29,72.68,6.33
318,okato,100,NZ,1569448444,77,-39.19,173.88,45.0,5.99
319,henties bay,19,NA,1569448444,93,-22.12,14.28,60.01,5.01
320,palana,100,RU,1569448444,79,59.08,159.95,44.69,51.9
321,zhigansk,100,RU,1569448444,90,66.77,123.37,40.25,11.95
322,ishimbay,7,RU,1569448444,91,53.45,56.04,33.03,5.77
323,pitimbu,20,BR,1569448445,83,-7.47,-34.81,75.2,6.93
324,tuatapere,100,NZ,1569448445,89,-46.13,167.69,45.0,17.0
325,mareeba,35,AU,1569448445,83,-16.99,145.42,73.99,10.29
326,narsaq,0,GL,1569448445,57,60.91,-46.05,44.6,2.24
327,nelson bay,75,AU,1569448445,93,-32.72,152.14,64.0,4.7
328,correntina,0,BR,1569448445,27,-13.34,-44.63,81.93,6.69
329,marienburg,0,DE,1569448445,93,52.12,9.98,57.2,1.12
330,araouane,0,ML,1569448446,9,18.9,-3.53,98.13,5.82
331,carnarvon,0,ZA,1569448446,8,-30.97,22.13,56.07,9.4
332,turbat,0,PK,1569448446,61,26.0,63.05,85.71,3.18
333,vila franca do campo,75,PT,1569448404,78,37.72,-25.43,71.6,6.93
334,burnie,100,AU,1569448446,97,-41.05,145.91,45.39,2.84
335,road town,40,VG,1569448446,83,18.42,-64.62,84.2,14.99
336,innisfail,47,AU,1569448446,90,-17.52,146.03,64.0,8.01
337,toamasina,20,MG,1569448446,93,-18.17,49.38,66.2,2.53
338,tervel,87,BG,1569448447,96,43.43,26.76,56.07,8.03
339,leh,0,IN,1569448447,30,34.16,77.58,39.02,0.6
340,namibe,79,AO,1569448447,90,-15.19,12.15,69.23,6.08
341,atasu,100,KZ,1569448447,40,48.68,71.64,47.91,2.89
342,sao joao da barra,90,BR,1569448447,94,-21.64,-41.05,69.8,4.7
343,tilichiki,100,RU,1569448447,90,60.47,166.1,42.41,29.37
344,deputatskiy,75,RU,1569448447,97,69.3,139.9,15.14,3.38
345,bermejo,12,AR,1569448448,25,-22.73,-64.34,84.98,3.4
346,spokane,1,US,1569448361,34,47.66,-117.42,70.0,12.75
347,olinda,75,AU,1569448448,93,-37.84,145.39,52.0,3.36
348,palora,75,EC,1569448448,54,-1.7,-77.97,82.4,4.7
349,nurota,0,UZ,1569448448,32,40.56,65.69,57.81,2.73
350,koslan,100,RU,1569448448,91,63.46,48.9,37.26,10.31
351,chornobay,100,UA,1569448448,44,49.67,32.32,57.06,10.45
352,codrington,90,AU,1569448449,82,-28.95,153.24,69.01,5.82
353,naze,100,NG,1569448449,95,5.43,7.07,73.83,3.83
354,isla mujeres,75,MX,1569448310,79,21.23,-86.73,86.0,8.05
355,zhanaozen,35,KZ,1569448449,45,43.35,52.85,63.68,17.0
356,sabang,27,PH,1569448449,92,13.8,121.11,73.0,2.62
357,ostrovnoy,100,RU,1569448449,94,68.05,39.51,38.57,13.91
358,boa vista,40,BR,1569448449,55,2.82,-60.67,89.6,6.93
359,marawi,3,PH,1569448449,84,8.0,124.29,77.0,4.0
360,melfi,40,IT,1569448450,100,41.0,15.66,69.8,2.24
361,pacific grove,1,US,1569448450,31,36.62,-121.92,102.0,13.87
362,asosa,68,ET,1569448450,89,10.07,34.53,65.82,3.6
363,kangaatsiaq,0,GL,1569448450,76,68.31,-53.46,39.22,7.27
364,treinta y tres,70,UY,1569448450,65,-33.23,-54.39,67.23,2.66
365,bubaque,86,GW,1569448450,83,11.28,-15.83,82.55,10.87
366,markova,40,RU,1569448450,81,52.21,104.21,53.6,13.42
367,port macquarie,75,AU,1569448451,93,-31.43,152.91,66.99,4.7
368,lethem,100,GY,1569448451,47,3.38,-59.8,92.16,6.8
369,garowe,14,SO,1569448451,53,8.41,48.48,78.93,26.31
370,muroto,40,JP,1569448451,72,33.37,134.14,68.0,8.05
371,paso de carrasco,0,UY,1569448235,35,-34.86,-56.05,73.4,4.7
372,quatre cocos,40,MU,1569448451,100,-20.21,57.76,71.01,3.36
373,bay roberts,90,CA,1569448451,93,47.58,-53.28,52.0,19.46
374,port hardy,90,CA,1569448346,93,50.7,-127.42,51.8,11.41
375,tiznit,34,MA,1569448452,90,29.7,-9.73,68.45,5.99
376,san felipe,36,CL,1569448452,56,-32.75,-70.73,70.02,5.12
377,talcahuano,75,CL,1569448452,87,-36.72,-73.12,55.4,12.75
378,posse,2,BR,1569448452,22,-14.08,-46.36,87.17,5.08
379,bagdarin,57,RU,1569448452,92,54.44,113.59,40.75,0.89
380,fairbanks,1,US,1569448164,65,64.84,-147.72,45.0,5.82
381,tarko-sale,100,RU,1569448452,91,64.92,77.78,34.0,8.99
382,catio,14,GW,1569448453,82,11.28,-15.25,82.1,3.87
383,shenjiamen,29,CN,1569448453,67,29.96,122.3,70.49,1.92
384,kalmunai,71,LK,1569448453,92,7.42,81.82,73.73,1.48
385,jurm,0,AF,1569448453,58,36.86,70.83,48.49,2.35
386,tessalit,0,ML,1569448453,12,20.2,1.01,92.64,9.24
387,preobrazheniye,0,RU,1569448453,83,42.9,133.91,48.98,2.91
388,san patricio,0,PY,1569448454,48,-26.98,-56.83,74.25,7.18
389,haimen,98,CN,1569448454,79,31.87,121.18,73.0,4.05
390,dali,38,CN,1569448454,42,34.79,109.94,65.61,3.27
391,thaton,100,MM,1569448454,80,16.91,97.37,80.66,7.16
392,kang,0,BW,1569448454,52,-23.67,22.79,60.69,12.24
393,agadir,20,MA,1569448454,93,30.42,-9.58,64.4,4.7
394,kupang,62,ID,1569448454,72,-10.16,123.6,76.35,6.49
395,lorengau,29,PG,1569448454,81,-2.02,147.27,80.24,7.11
396,marquetalia,40,CO,1569448455,68,5.3,-75.05,69.8,10.29
397,melilla,20,EC,1569448455,62,-0.8,-80.23,84.2,8.05
398,ulaanbaatar,0,MN,1569448455,74,47.92,106.92,37.4,2.24
399,north bend,1,US,1569448455,68,43.41,-124.22,75.0,20.8
400,uray,100,RU,1569448455,82,60.13,64.8,35.03,12.26
401,salalah,75,OM,1569448455,88,17.01,54.1,80.6,9.17
402,jawhar,100,IN,1569448455,93,19.91,73.23,76.16,1.81
403,san lorenzo,40,HN,1569448456,70,13.43,-87.45,84.2,6.93
404,jamundi,75,CO,1569448456,61,3.26,-76.53,80.6,11.41
405,hatsukaichi,40,JP,1569448456,88,34.36,132.28,66.0,5.82
406,bonthe,100,SL,1569448456,87,7.53,-12.5,78.48,6.71
407,torbay,90,CA,1569448456,100,47.66,-52.73,52.0,9.17
408,calama,0,CL,1569448456,9,-22.46,-68.93,73.4,23.04
409,hamina,0,FI,1569448456,74,60.57,27.2,35.6,2.24
410,villa carlos paz,0,AR,1569448457,18,-31.42,-64.5,84.99,13.87
411,byron bay,90,AU,1569448457,77,-28.65,153.62,71.01,5.82
412,abu zabad,100,SD,1569448457,61,12.35,29.25,79.27,6.96
413,yafran,0,LY,1569448457,41,32.06,12.53,76.41,0.36
414,maniitsoq,0,GL,1569448457,75,65.42,-52.9,41.02,1.23
415,komarno,75,UA,1569448457,100,49.63,23.7,55.4,6.71
416,walvis bay,2,NA,1569448458,87,-22.95,14.51,60.01,4.7
417,las cruces,90,CL,1569448458,87,-33.5,-71.62,51.8,10.29
418,tadine,100,NC,1569448458,81,-21.55,167.88,69.23,16.98
419,dalby,75,AU,1569448458,77,-27.18,151.26,66.99,12.75
420,cascais,0,PT,1569448458,82,38.7,-9.42,66.2,10.29
421,mahbubabad,100,IN,1569448458,94,17.62,80.02,75.4,4.76
422,batemans bay,100,AU,1569448458,91,-35.71,150.18,57.0,1.99
423,santa maria a monte,40,IT,1569448458,93,43.7,10.69,66.99,3.36
424,bereda,75,ES,1569448459,82,43.27,-7.54,64.0,4.7
425,ranfurly,67,CA,1569448459,59,53.41,-111.68,52.97,18.12
426,nadym,100,RU,1569448459,96,65.53,72.51,35.49,13.89
427,alzamay,91,RU,1569448459,90,55.55,98.67,44.71,2.01
428,virovitica,100,HR,1569448459,95,45.83,17.39,61.0,4.23
429,boffa,64,GN,1569448459,83,10.18,-14.04,82.37,8.16
430,san carlos de bariloche,0,AR,1569448459,18,-41.13,-71.31,71.6,13.87
431,inyonga,85,TZ,1569448460,33,-6.72,32.06,75.81,6.13
432,zhangye,0,CN,1569448460,26,38.94,100.46,55.76,6.96
433,sechura,57,PE,1569448460,94,-5.56,-80.82,61.36,19.06
434,lambarene,100,GA,1569448460,95,-0.7,10.22,74.37,2.39
435,rosetta,0,EG,1569448460,53,31.4,30.42,73.4,2.24
436,nassogne,82,BE,1569448460,93,50.13,5.35,61.0,9.17
437,kolokani,0,ML,1569448460,72,13.58,-8.03,78.24,5.59
438,am timan,98,TD,1569448461,83,11.04,20.28,77.38,4.92
439,riyadh,0,SA,1569448349,20,24.63,46.72,87.8,4.7
440,aosta,89,IT,1569448461,72,45.74,7.32,62.6,2.24
441,templin,20,DE,1569448461,100,53.12,13.5,59.0,4.7
442,benjamin hill,6,MX,1569448461,94,30.17,-111.1,80.01,5.01
443,linhares,94,BR,1569448461,74,-19.38,-40.06,68.88,7.85
444,sola,100,TZ,1569448461,54,-3.17,33.8,73.13,4.88
445,punta alta,0,AR,1569448462,28,-27.46,-55.82,80.6,9.17
446,marolambo,80,MG,1569448462,99,-20.05,48.13,60.98,0.96
447,port keats,0,AU,1569448462,91,-14.25,129.55,72.7,4.38
448,andreapol,57,RU,1569448462,92,56.65,32.27,34.52,5.03
449,moerai,100,PF,1569448462,81,-22.43,-151.33,72.43,10.67
450,ponnani,75,IN,1569448462,78,10.77,75.93,80.6,4.7
451,burgos,38,ES,1569448462,76,42.34,-3.7,57.0,1.12
452,acandi,82,CO,1569448463,84,8.51,-77.28,80.53,2.8
453,collie,75,AU,1569448463,64,-33.36,116.15,55.99,0.36
454,sitka,100,US,1569448463,56,37.17,-99.65,91.0,10.0
455,kokkola,0,FI,1569448463,86,63.84,23.13,48.99,8.05
456,biga,0,TR,1569448468,87,40.23,27.24,64.0,3.36
457,kutum,100,SD,1569448468,22,14.2,24.66,86.94,9.06
458,svetlogorsk,40,RU,1569448468,92,53.14,59.15,30.2,4.47
459,quthing,0,LS,1569448469,24,-30.4,27.7,40.88,5.91
460,muravlenko,100,RU,1569448469,90,63.79,74.5,34.63,18.86
461,riposto,0,IT,1569448469,83,37.73,15.2,75.0,5.82
462,puerto del rosario,20,ES,1569448469,88,28.5,-13.86,73.4,17.22
463,salinas,1,US,1569448466,31,36.67,-121.66,102.0,13.87
464,flinders,40,AU,1569448469,87,-34.58,150.85,64.99,2.24
465,solnechnyy,0,RU,1569448469,66,50.72,136.64,35.46,3.13
466,hobyo,82,SO,1569448469,87,5.35,48.53,77.34,21.77
467,parati,75,BR,1569448469,94,-20.51,-54.63,68.0,12.75
468,saint-joseph,0,FR,1569448470,49,43.56,6.97,72.0,2.24
469,sorong,96,ID,1569448470,95,-0.86,131.25,74.18,4.7
470,ranir bazar,100,IN,1569448470,94,23.84,91.36,72.79,7.54
471,morehead,1,US,1569448470,26,38.18,-83.43,84.99,4.7
472,yabelo,100,ET,1569448470,56,4.89,38.09,69.62,6.64
473,aranos,0,NA,1569448470,34,-24.14,19.11,65.52,16.91
474,tolmachevo,75,RU,1569448470,80,55.36,38.22,43.0,2.24
475,okha,33,RU,1569448471,66,53.59,142.95,47.84,28.95
476,bibbiena,0,IT,1569448471,88,43.7,11.82,66.99,3.36
477,nantucket,1,US,1569448471,68,41.28,-70.1,69.01,12.75
478,grand-bourg,40,GP,1569448471,83,15.88,-61.31,87.8,6.93
479,minab,0,IR,1569448471,84,27.15,57.07,86.0,4.7
480,sao jose da coroa grande,22,BR,1569448471,87,-8.9,-35.15,70.67,5.17
481,ahuimanu,90,US,1569448472,100,21.44,-157.84,78.8,4.45
482,nata,0,BW,1569448472,50,-20.21,26.19,58.95,17.27
483,mana,0,NG,1569448472,37,13.03,5.27,88.81,7.7
484,tevaitoa,92,PF,1569448472,80,-16.78,-151.5,78.42,15.32
485,katsuura,20,JP,1569448472,93,33.93,134.5,64.4,6.93
486,naro moru,28,KE,1569448472,84,-0.17,37.02,60.37,15.03
487,parana,75,BR,1569448472,55,-7.52,-72.89,89.6,3.36
488,wangkui,0,CN,1569448473,90,46.83,126.5,50.18,6.93
489,tecoanapa,75,MX,1569448473,70,16.99,-99.26,86.0,8.05
490,inongo,62,CD,1569448473,94,-1.93,18.29,71.49,1.43
491,chama,61,ZM,1569448473,44,-11.22,33.16,74.12,5.77
492,hualmay,17,PE,1569448473,91,-11.1,-77.61,61.41,11.95
493,mujiayingzi,0,CN,1569448473,39,42.12,118.78,56.72,5.57
494,taltal,11,CL,1569448473,72,-25.41,-70.49,54.18,6.49
495,chitral,0,PK,1569448474,29,35.85,71.79,43.92,6.6
496,pravia,0,ES,1569448474,87,43.49,-6.11,63.0,4.7
497,broken hill,66,AU,1569448474,46,-31.97,141.45,53.6,5.82
498,colares,0,PT,1569448474,82,38.8,-9.45,66.2,10.29
499,trinidad,75,BO,1569448474,66,-14.83,-64.9,84.2,13.87
500,camabatela,52,AO,1569448474,92,-8.19,15.37,69.46,1.25
501,trn,40,BA,1569448474,100,44.85,17.24,60.8,3.36
502,puerto escondido,75,MX,1569448475,70,15.86,-97.07,86.0,11.41
503,vostok,0,RU,1569448475,93,46.45,135.83,38.72,3.04
504,beroroha,0,MG,1569448475,64,-21.68,45.17,68.72,8.5
505,erenhot,0,CN,1569448475,28,43.65,111.97,62.94,10.33
506,yarada,75,IN,1569448475,100,17.65,83.27,77.0,2.24
507,coos bay,1,US,1569448316,68,43.37,-124.22,75.0,20.8
508,lisakovsk,0,KZ,1569448475,79,52.55,62.49,37.29,7.05
509,kavieng,100,PG,1569448475,75,-2.57,150.8,83.7,10.51
510,denia,30,ES,1569448476,83,38.84,0.11,75.0,3.0
511,edd,0,ER,1569448476,79,13.93,41.69,84.98,3.53
512,rio claro,75,BR,1569448476,100,-22.41,-47.56,70.0,3.36
513,joshimath,78,IN,1569448476,83,30.57,79.57,51.46,2.06
514,saint-augustin,75,CA,1569448421,59,45.63,-73.98,69.01,3.36
515,campbellton,100,CA,1569448476,94,48.0,-66.68,48.85,4.5
516,lusambo,100,CD,1569448476,97,-4.97,23.44,69.51,5.26
517,rundu,22,NA,1569448476,31,-17.91,19.77,78.8,8.05
518,half moon bay,20,US,1569448476,25,37.46,-122.43,98.01,8.05
519,kloulklubed,75,PW,1569448477,94,7.04,134.26,78.8,4.61
520,bongandanga,100,CD,1569448477,96,1.51,21.07,72.25,2.3
521,blagoveshchensk,0,RU,1569448477,92,50.29,127.53,28.4,0.78
522,ballina,90,IE,1569448477,91,54.11,-9.15,59.0,8.99
523,severobaykalsk,97,RU,1569448477,53,55.65,109.32,42.06,2.51
524,lagoa,0,PT,1569448477,56,37.14,-8.45,71.6,6.93
525,harper,40,US,1569448478,32,30.3,-99.24,93.99,11.41
526,baturaja,98,ID,1569448478,96,-4.12,104.17,70.59,2.06
527,livingstone,0,ZW,1569448478,56,-17.85,25.86,63.0,15.41
528,kualakapuas,0,ID,1569448478,94,-3.01,114.39,72.66,2.48
529,gushikawa,20,JP,1569448478,83,26.35,127.87,78.8,9.17
530,rocha,67,UY,1569448346,79,-34.48,-54.34,63.05,1.68
531,xiongzhou,0,CN,1569448478,82,32.34,118.83,70.0,4.47
532,mangai,98,CD,1569448479,91,-4.07,19.59,71.85,1.25
533,were ilu,68,ET,1569448479,69,10.6,39.43,58.86,7.16
534,quang ngai,95,VN,1569448479,98,15.12,108.8,70.05,1.99
